[
  {
    "statements": [
      "UPDATE historical_location_data SET latitude = 40.7128, longitude = -74.0060 WHERE location_id = 1",
      "UPDATE historical_location_data SET latitude = 34.0522, timestamp = '2022-01-01 12:00:00' WHERE user_id = 123",
      "UPDATE historical_location_data SET latitude = 40.7128, longitude = -74.0060 WHERE location_id = 1",
      "UPDATE historical_location_data SET user_id = 1234, timestamp = '2022-01-10 08:30:00' WHERE location_id = 2"
    ]
  },
  {
    "statements": [
      "UPDATE locations SET longitude = -73.9857, latitude = 40.7484 WHERE location_id = '2c7f3adc-3600-4aa6-8fa3-9dedf68e1750';",
      "UPDATE geofences SET center_latitude = 35.6895, center_longitude = 139.6917, radius = 500 WHERE geofence_id = 'b0a5839c-854f-4d08-bdea-55f8c73618a6';",
      "UPDATE locations SET longitude = 37.7749, latitude = -122.4194 WHERE location_id = 'f476561f-27e3-4be8-b414-f6ec508d6022';",
      "UPDATE geofences SET radius = 500, center_longitude = 37.6189, center_latitude = -122.3750 WHERE geofence_id = 'c0e68b4d-9d8e-4b47-b4c2-5d43ee7065be';"
    ]
  },
  {
    "statements": [
      "UPDATE historical_location_data SET event_timestamp = '2022-05-30 10:00:00' WHERE location_id = 1;",
      "UPDATE geofence_data SET geofence_radius = 100.5 WHERE geofence_id = 3;",
      "UPDATE historical_location_data SET latitude = 40.7128, longitude = -74.0060 WHERE location_id = 1;",
      "UPDATE marketing_events SET event_date = '2022-05-16', event_location_id = 3 WHERE event_id = 5;"
    ]
  },
  {
    "statements": [
      "UPDATE location_data SET latitude = 37.7749, longitude = -122.4194 WHERE location_id = 1;",
      "UPDATE geofences SET name = 'Office', radius = 100.25, latitude = 37.7749, longitude = -122.4194 WHERE geofence_id = 3;",
      "UPDATE location_data SET latitude = 34.0567, longitude = -118.2427 WHERE location_id = 1;",
      "UPDATE event_participants SET age = 30, name = 'John Doe' WHERE participant_id = 2;"
    ]
  },
  {
    "statements": [
      "UPDATE locations SET address = '123 Main St' WHERE location_id = 1;",
      "UPDATE geofences SET radius = 200 WHERE geofence_id = 2;",
      "UPDATE locations SET latitude = 37.7749, longitude = -122.4194, address = 'San Francisco, CA' WHERE location_id = 1;",
      "UPDATE campaign_performance SET impressions = 1000, clicks = 500, conversions = 100 WHERE campaign_id = 1 AND geofence_id = 1;"
    ]
  }
]