[
  {
    "statements": [
      "UPDATE location_data SET latitude = 40.7128, longitude = -74.0060 WHERE location_id = 'f47ac10b-58cc-4372-a567-0e02b2c3d479';",
      "UPDATE location_data SET visit_timestamp = '2022-09-15 10:30:00', customer_id = 'fc206ea5-d9cf-42fe-92f0-344561d2d0c7' WHERE location_id = '6e8bc430-9c3a-4bbe-a183-ed0cafea70f6';",
      "UPDATE location_data SET latitude = -33.8671, longitude = 151.2071, visit_timestamp = '2021-05-25 08:00:00', customer_id = '123e4567-e89b-12d3-a456-426614174000' WHERE location_id = 'd48cd430-eaef-48d3-a423-5399960f402c';",
      "UPDATE location_data SET longitude = 144.9631, visit_timestamp = '2021-06-10 14:30:00', latitude = -37.8136, customer_id = '98765432-e89b-12d3-a456-426614174000' WHERE location_id = '154b278f-6b70-4a39-aee0-d7c88667fe33';"
    ]
  },
  {
    "statements": [
      "UPDATE location_data SET latitude = 35.6895, longitude = 139.6917 WHERE location_id = 1;",
      "UPDATE geofence_areas SET geofence_data = '{\"radius\": 500, \"center\": \"[10,20]\"}' WHERE area_id = 2;",
      "UPDATE location_data SET longitude = 45.6789, latitude = 23.4567 WHERE location_id = 1;",
      "UPDATE geofence_areas SET geofence_data = '{\"radius\": 100, \"shape\": \"circle\"}', area_name = 'Central Area' WHERE area_id = 3;"
    ]
  },
  {
    "statements": [
      "UPDATE locations SET latitude = 40.7128 WHERE location_name = 'New York City';",
      "UPDATE geofences SET area = 25.5, geofence_name = 'New Area' WHERE geofence_id = 1;",
      "UPDATE locations SET location_name = 'New York' WHERE location_id = 1;",
      "UPDATE visits SET customer_id = 1001, location_id = 2 WHERE visit_id = 5;"
    ]
  },
  {
    "statements": [
      "UPDATE locations SET latitude = 37.7749, longitude = -122.4194 WHERE location_id = 1;",
      "UPDATE visitors SET age = 30, gender = 'Female' WHERE visitor_id = 3;",
      "UPDATE locations SET latitude=40.7128, longitude=-74.0060, location_name='New York City' WHERE location_id=1;",
      "UPDATE visitors SET age=30, gender='Female', visitor_name='Alice' WHERE visitor_id=2;"
    ]
  },
  {
    "statements": [
      "UPDATE Customers SET email = 'newemail@example.com' WHERE customer_id = 1;",
      "UPDATE Locations SET location_name = 'Downtown' WHERE location_id = 3;",
      "UPDATE Locations SET longitude = -122.332561, latitude = 37.595105, location_name = 'San Francisco' WHERE location_id = 1;",
      "UPDATE Customers SET email = 'newemail@example.com', phone_number = '123-456-7890' WHERE customer_id = 5;"
    ]
  }
]