[
  {
    "statements": [
      "UPDATE WindFarms SET wind_speed = 12.5, location_name = 'Farm A' WHERE id = 1;",
      "UPDATE WindFarms SET longitude = -77.040, latitude = 38.907 WHERE location_name = 'Farm B';",
      "UPDATE WindFarms SET location_name = 'Farmington', latitude = 36.7275, longitude = -108.05924, wind_speed = 12.5 WHERE id = 1;",
      "UPDATE WindFarms SET latitude = 40.7128, wind_speed = 11.3, location_name = 'New York', longitude = -74.0060 WHERE id = 2;"
    ]
  },
  {
    "statements": [
      "UPDATE wind_farm_locations SET latitude = 40.7144, longitude = -74.006",
      "UPDATE wind_farm_performance SET power_generated = 5000.00 WHERE performance_id = 1",
      "UPDATE wind_farm_locations SET latitude = 35.12345678, longitude = -120.98765432 WHERE location_id = 1;",
      "UPDATE wind_farm_performance SET power_generated = 5000.75, datetime = '2022-07-15 08:30:00' WHERE performance_id = 10;"
    ]
  },
  {
    "statements": [
      "UPDATE WindFarmLocations SET average_wind_speed = 10.5 WHERE location_id = 1;",
      "UPDATE WindTurbines SET height = 120, brand = 'Brand X' WHERE turbine_id = 2;",
      "UPDATE WindFarmLocations SET average_wind_speed = 7.5, latitude = 40.1234 WHERE location_id = 1;",
      "UPDATE WindTurbines SET rotor_diameter = 120, brand = 'NewBrand' WHERE turbine_id = 10;"
    ]
  },
  {
    "statements": [
      "UPDATE locations SET elevation = 100 WHERE location_id = 1;",
      "UPDATE wind_power SET power_output = 500 WHERE location_id = 2;",
      "UPDATE locations SET elevation = 1000, latitude = 40.7128, longitude = -74.0060 WHERE location_id = 1;",
      "UPDATE wind_speed SET speed = 25.5 WHERE location_id = 1;"
    ]
  },
  {
    "statements": [
      "UPDATE WindFarms SET name = 'Wind Farm XYZ', latitude = 40.73061, longitude = -73.935242 WHERE id = 1;",
      "UPDATE Turbines SET capacity = 4.5, model = 'Model ABC' WHERE id = 2;",
      "UPDATE WindFarms SET latitude = 40.7128, longitude = -74.0060, name = 'New York Wind Farm' WHERE id = 1;",
      "UPDATE Turbines SET capacity = 3.5, model = 'EcoWind X', height = 120.5 WHERE id = 2;"
    ]
  }
]