[
  {
    "statements": [
      "UPDATE satellite_positions SET longitude = 45.67, latitude = 34.89 WHERE satellite_id = 1;",
      "UPDATE satellite_positions SET latitude = 40.12, satellite_name = 'GalaxySat' WHERE satellite_id = 2;",
      "UPDATE satellite_positions SET longitude = 35.75, latitude = 45.23 WHERE satellite_id = 1",
      "UPDATE satellite_positions SET satellite_name = 'Satellite X', longitude = -23.45 WHERE satellite_id = 2"
    ]
  },
  {
    "statements": [
      "UPDATE satellites SET name = 'Starlink V1.0', altitude = 550.2 WHERE id = '862da610-34e1-4ecc-b52d-b3cb6364b9f1';",
      "UPDATE orbits SET orbit_period = 90.5, orbit_type = 'Polar' WHERE satellite_id = '862da610-34e1-4ecc-b52d-b3cb6364b9f1';",
      "UPDATE orbits SET orbit_angle = 30.5, orbit_period = 45.7 WHERE satellite_id = '78d01618-a76e-4d07-be0b-f9d5e64ec4ec';",
      "UPDATE satellites SET altitude = 1000.75, longitude = -12.345, latitude = 45.678 WHERE id = 'db0f1d41-4aa6-47ec-b115-41924bfe6b3c';"
    ]
  },
  {
    "statements": [
      "UPDATE satellites SET name = 'Satellite-1', latitude = -23.456, longitude = 67.890 WHERE id = 1;",
      "UPDATE orbits SET altitude = 1000.5, orbit_type = 'Polar' WHERE satellite_id = 3;",
      "UPDATE orbits SET altitude=70000 WHERE satellite_id=1;",
      "UPDATE positions SET timestamp='2022-01-15 08:30:00', position_x=10.5, position_y=20.7, position_z=15.2 WHERE satellite_id=2;"
    ]
  },
  {
    "statements": [
      "UPDATE satellites SET orbit_type = 'LEO', altitude_km = 500 WHERE satellite_id = '91237baf-3a43-4b2b-8c4d-5ed108eca047';",
      "UPDATE positions SET longitude_deg = 45.678, latitude_deg = -23.456 WHERE position_id = 'f1722b59-5389-40de-81c4-3fa2f62dbe55';",
      "UPDATE satellites SET altitude_km = 550 WHERE satellite_name = 'Hubble Telescope';",
      "UPDATE positions SET longitude_deg = 45.678, latitude_deg = -32.123 WHERE satellite_id = '94f080b2-abc1-4f2f-8980-1d87e61145c0';"
    ]
  },
  {
    "statements": [
      "UPDATE satellites SET satellite_name = 'Updated Satellite 1' WHERE satellite_id = 1;",
      "UPDATE satellite_orbits SET inclination = 30.5, eccentricity = 0.2 WHERE satellite_id = 3;",
      "UPDATE satellites SET orbit_speed = 1000 WHERE satellite_id = 1;",
      "UPDATE satellite_tracks SET track_duration = '1 hour' WHERE track_id = 5;"
    ]
  }
]