[
  {
    "statements": [
      "UPDATE geolocation_data SET latitude = 37.7749, longitude = -122.4194 WHERE user_id = '123e4567-e89b-12d3-a456-426614174000';",
      "UPDATE geolocation_data SET longitude = -73.935242, location_name = 'New York, USA', latitude = 40.73061 WHERE user_id = 'a0eebc99-9c0b-4ef8-bb6d-6bb9bd380a11';",
      "UPDATE geolocation_data SET location_name = 'New York' WHERE user_id = '123e4567-e89b-12d3-a456-426614174000';",
      "UPDATE geolocation_data SET longitude = -73.985708, latitude = 40.748817 WHERE user_id = '067e4567-e89b-12d3-a456-426614174000';"
    ]
  },
  {
    "statements": [
      "UPDATE users SET email = 'updated_email@example.com' WHERE user_id = 1;",
      "UPDATE campaigns SET start_date = '2023-01-01', end_date = '2023-12-31' WHERE campaign_id = 5;",
      "UPDATE users SET username = 'John Doe', email = 'johndoe@example.com' WHERE user_id = 1;",
      "UPDATE campaigns SET target_location = ST_GeogPoint(-73.935242, 40.730610), end_date = '2022-12-31', campaign_name = 'New Year Campaign' WHERE campaign_id = 5;"
    ]
  },
  {
    "statements": [
      "UPDATE users SET latitude = 40.7128, longitude = -74.0060 WHERE user_id = 1;",
      "UPDATE targeting SET location_id = 2, user_id = 3 WHERE targeting_id = 5;",
      "UPDATE users SET username = 'new_username', latitude = 40.712776, longitude = -74.005974 WHERE user_id = 1;",
      "UPDATE targeting SET location_id = 2, user_id = 3 WHERE targeting_id = 5;"
    ]
  },
  {
    "statements": [
      "UPDATE users SET email = 'example@example.com' WHERE user_id = 1;",
      "UPDATE target_locations SET marketing_campaign_id = 5, created_at = CURRENT_TIMESTAMP WHERE location_id = 2;",
      "UPDATE users SET email = 'newemail@example.com', username = 'newusername' WHERE user_id = 1;",
      "UPDATE target_locations SET marketing_campaign_id = 2, location_name = 'New Location' WHERE location_id = 3;"
    ]
  },
  {
    "statements": [
      "UPDATE user_locations SET latitude = 40.7128, longitude = -74.0060 WHERE user_id = 123;",
      "UPDATE marketing_campaigns SET campaign_budget = 15000.00, end_date = '2023-12-31' WHERE campaign_id = 456;",
      "UPDATE user_preferences SET notification_preference = true WHERE user_id = 1001;",
      "UPDATE marketing_campaigns SET start_date = '2022-09-15', campaign_budget = 50000 WHERE campaign_id = 2001;"
    ]
  }
]